{
  "museums": [
    {
      "id": 1,
      "title": "Museum Boijmans Van Beuningen",
      "description": "Museum Boijmans Van Beuningen is an art museum located in Rotterdam. It houses a vast collection of art, including paintings, sculptures, and design objects.",
      "latitude": 51.914482,
      "longitude": 4.472842
    },
    {
      "id": 2,
      "title": "Kunsthal Rotterdam",
      "description": "Kunsthal Rotterdam is a contemporary art museum situated in the Museumpark area of Rotterdam. It hosts various temporary exhibitions throughout the year.",
      "latitude": 51.910453,
      "longitude": 4.473572
    },
    {
      "id": 3,
      "title": "Maritime Museum Rotterdam",
      "description": "The Maritime Museum Rotterdam showcases the maritime history of the city. It features exhibits on shipping, ports, and shipbuilding, as well as interactive displays.",
      "latitude": 51.917498,
      "longitude": 4.481736
    },
    {
      "id": 4,
      "title": "Netherlands Photo Museum",
      "description": "The Netherlands Photo Museum focuses on photography and visual culture. It displays a diverse collection of photographs, both historical and contemporary.",
      "latitude": 51.905475,
      "longitude": 4.487441
    },
    {
      "id": 5,
      "title": "Museum Rotterdam",
      "description": "Museum Rotterdam showcases the history and development of the city. It offers insights into Rotterdam's architecture, cultural heritage, and social history.",
      "latitude": 51.908968,
      "longitude": 4.458227
    },
    {
      "id": 6,
      "title": "Het Nieuwe Instituut",
      "description": "Het Nieuwe Instituut explores the intersections of architecture, design, and digital culture. It presents exhibitions, events, and research projects.",
      "latitude": 51.914317,
      "longitude": 4.471189
    },
    {
      "id": 7,
      "title": "Depot Boijmans Van Beuningen",
      "description": "Depot Boijmans Van Beuningen is a new art storage facility and exhibition space. It houses the collection of Museum Boijmans Van Beuningen and allows public access to view the stored artworks.",
      "latitude": 51.914041,
      "longitude": 4.471528
    },
    {
      "id": 8,
      "title": "Chabot Museum",
      "description": "Chabot Museum is an art museum located in the former home and studio of Dutch painter and sculptor Henk Chabot. It displays his works and hosts temporary exhibitions.",
      "latitude": 51.914699,
      "longitude": 4.472006
    },
    {
      "id": 9,
      "title": "Wereldmuseum Rotterdam",
      "description": "Wereldmuseum Rotterdam focuses on the arts and cultures of different regions around the world. Its collection includes ethnographic objects, textiles, and artifacts.",
      "latitude": 51.907930,
      "longitude": 4.480400
    },
    {
      "id": 10,
      "title": "Kunstinstituut Melly",
      "description": "Kunstinstituut Melly, formerly known as Witte de With Center for Contemporary Art, is an institute for contemporary art. It presents exhibitions, publications, and events.",
      "latitude": 51.915512,
      "longitude": 4.477007
    }
  ]
}
